,name,location_name,city,state,country,indy_page,website,latitude,longitude,vertical,is_nordic,is_alpine_xc,is_xc_only,is_cross_country,is_allied,acres,num_trails,trail_length_mi,trail_length_km,num_lifts,vertical_base_ft,vertical_summit_ft,vertical_elevation_ft,has_night_skiing,has_terrain_parks,is_dog_friendly,has_snowshoeing,difficulty_beginner,difficulty_intermediate,difficulty_advanced,snowfall_average_in,snowfall_high_in,is_dog_friendly_display,is_alpine_xc_display,night_skiing_display,has_terrain_parks_display,is_allied_display
42,49 Degrees North,"Chewelah, WA, USA",Chewelah,Washington,United States,https://www.indyskipass.com/our-resorts/49-degrees-north,https://ski49n.com,48.3010898,-117.6042013,1851,True,True,False,False,False,2325,88,15,25,7,3923,5774,1851,False,True,True,True,30,40,30,301,470,Yes,Yes,No,Yes,No
350,Amihari Onsen Ski Resort,"Morioka City, Iwate Prefecture, Japan",Morioka,Iwate,Japan,https://www.indyskipass.com/our-resorts/amihari-onsen-ski-resort,https://qkamura.or.jp/iwate/ski/,39.821302978855,140.93623505636,1969,False,False,False,False,False,143,7,,,4,2461,4430,1969,False,False,False,False,35,50,15,,,No,No,No,No,No
43,Andes Tower Hills,"Alexandria, MN, USA",Alexandria,Minnesota,United States,https://www.indyskipass.com/our-resorts/andes-tower-hills,,45.850975,-95.6330774,290,True,True,False,False,False,70,16,,,6,1620,1330,290,True,True,False,True,33,34,33,50,120,No,Yes,Yes,Yes,No
44,Ani Ski Resort,"Akita, Tohoku, Japan",Akita,Akita,Japan,https://www.indyskipass.com/our-resorts/ani-ski-resort,https://www.aniski.jp/,39.9573111,140.4950898,2175,False,False,False,False,False,,5,,,3,1761,3937,2175,False,False,False,False,40,40,20,400,550,No,No,No,No,No
45,Antelope Butte,"Shell, WY, USA",Shell,Wyoming,United States,https://www.indyskipass.com/our-resorts/antelope-butte,https://www.antelopebuttefoundation.org,44.6124452,-107.5171051,1000,False,False,False,False,False,500,30,,,3,8400,9400,1000,False,True,False,False,26,37,37,200,350,No,No,No,Yes,No
46,Aomori Spring Ski Resort,"Hirosaki, Tohoku, Japan",Hirosaki,Aomori,Japan,https://www.indyskipass.com/our-resorts/aomori-spring-ski-resort,https://aomorispringski.com,40.693185,140.2767197,1788,False,False,False,False,False,,14,,,5,1303,3025,1788,True,True,False,False,50,30,20,320,415,No,No,Yes,Yes,No
47,Apex Mountain Resort,"Penticton, BC, CA",Penticton,British Columbia,Canada,https://www.indyskipass.com/our-resorts/apex-mountain-resort,https://apexresort.com,49.3908831,-119.9060377,1979,False,False,False,False,False,1112,80,,,4,5167,7146,1979,True,True,False,False,12,34,54,224,256,No,No,Yes,Yes,No
48,Arctic Valley,"Anchorage, AK, USA",Anchorage,Alaska,United States,https://www.indyskipass.com/our-resorts/arctic-valley,https://arcticvalley.org,61.2465242,-149.5350607,1400,False,False,False,False,False,500,15,,,4,2500,3900,1400,False,True,False,False,20,50,30,250,400,No,No,No,Yes,No
49,Baldy Mountain Resort,"Oliver, BC, CA",Oliver,British Columbia,Canada,https://www.indyskipass.com/our-resorts/baldy-mountain-resort,https://baldyresort.com,49.1530415,-119.2411421,1315,False,False,False,False,False,600,35,,,3,5650,6965,1315,True,True,False,False,30,42,28,275,354,No,No,Yes,Yes,No
365,Baqueira/Beret,"Baqueira, Spain",Baqueira,Cataluña,Spain,https://www.indyskipass.com/our-resorts/baqueiraberet,https://www.baqueira.es/en,42.6952103,0.9064088,3608,False,False,False,False,False,5616,122,,,36,4900,8560,3608,False,True,False,False,35,35,30,50,152,No,No,No,Yes,No
396,Bear Creek,"Macungie, PA",Macungie,Pennsylvania,United States,https://www.indyskipass.com/our-resorts/bear-creek,https://www.bcmountainresort.com/,40.4813472,-75.6496577,510,False,False,False,False,False,86,23,,,6,590,1100,510,True,True,False,False,30,55,10,45,64,No,No,Yes,Yes,No
272,Bear Valley Adventure Company,"Bear Valley, CA, USA",Bear Valley,California,United States,https://www.indyskipass.com/our-resorts/bear-valley-adventure-company,https://www.bvadventures.com/webcam,38.462895733807,-120.03797910193,900,True,False,True,True,False,,38,40,65,,,,,False,False,False,True,,,,,,No,No,No,No,No
371,Bear Valley Mountain Resort,"Bear Valley, CA",Bear Valley,California,United States,https://www.indyskipass.com/our-resorts/bear-valley-mountain-resort,https://www.bearvalley.com/,38.4788547,-120.0628751,1900,False,False,False,False,False,1679,75,,,9,6600,8500,1900,False,True,False,False,25,40,35,288,546,No,No,No,Yes,No
50,Beaver Mountain,"Garden City, UT, USA",Garden City,Utah,United States,https://www.indyskipass.com/our-resorts/beaver-mountain,https://www.skithebeav.com,41.968075,-111.5467243,1700,False,False,False,False,False,828,48,,,6,7100,8860,1700,True,True,False,False,35,40,25,400,575,No,No,Yes,Yes,No
51,Berkshire East Mountain Resort,"Charlemont, MA, USA",Charlemont,Massachusetts,United States,https://www.indyskipass.com/our-resorts/berkshire-east-mountain-resort,https://berkshireeast.com,42.6211485,-72.8797153,1180,False,False,False,False,False,180,45,,,6,640,1840,1180,True,True,False,False,30,35,35,69,124,No,No,Yes,Yes,No
337,Big Moose,"447 Ski Resort Rd, Greenville Junction, ME 04442",Northwest Piscataquis,Maine,United States,https://www.indyskipass.com/our-resorts/big-moose,https://skibigmoose.com/,45.507262858109,-69.701919722368,600,False,False,False,False,False,,29,,,2,1750,3200,600,False,False,False,False,,,,,,No,No,No,No,No
52,Big Powderhorn,"Bessemer, MI, USA",Bessemer,Michigan,United States,https://www.indyskipass.com/our-resorts/big-powderhorn,https://bigpowderhorn.net,46.5090372,-90.0982872,622,False,False,False,False,False,253,45,,,10,1240,1862,622,False,True,False,False,25,35,40,200,319,No,No,No,Yes,No
339,Big Red Cats,,,,,https://www.indyskipass.com/our-resorts/big-red-cats,,,,,False,False,False,False,False,,,,,,,,,False,False,False,False,,,,,,No,No,No,No,No
53,Big Rock Mountain,"Mars Hill, ME, USA",Mars Hill,Maine,United States,https://www.indyskipass.com/our-resorts/big-rock-mountain,https://www.bigrockmaine.com,46.5223714,-67.8353602,920,False,False,False,False,False,90,29,,,4,670,1590,920,True,True,False,False,10,66,24,94,150,No,No,Yes,Yes,No
178,Big White Ski Resort,"Kelowna, BC, CA",Kelowna,British Columbia,Canada,https://www.indyskipass.com/our-resorts/big-white-ski-resort,https://www.bigwhite.com,49.7216277,-118.9291592,2550,False,False,False,False,False,2765,119,,,16,5757,7606,2550,True,True,False,False,18,54,28,294,379,No,No,Yes,Yes,No
273,Black Jack Cross Country Ski Club,"Rossland, BC, CA",Rossland,British Columbia,Canada,https://www.indyskipass.com/our-resorts/black-jack-cross-country-ski-club,,49.285741872159,-117.72990986843,1062,True,False,True,True,False,,30,31,50,,,,,True,False,True,True,,,,,,Yes,No,Yes,No,No
55,Black Mountain of Maine,"Rumford, ME, USA",Rumford,Maine,United States,https://www.indyskipass.com/our-resorts/black-mountain-of-maine,https://skiblackmountain.org,44.5769444,-70.6159136,1380,True,True,False,False,False,600,31,20,33,2,900,2280,1380,False,False,False,False,23,40,37,100,210,No,Yes,No,No,No
56,Black Mountain Ski Area,"Jackson, NH, USA",Jackson,New Hampshire,United States,https://www.indyskipass.com/our-resorts/black-mountain-ski-area,https://www.blackmt.com,44.1666811,-71.168649,1100,False,False,False,False,False,140,45,,,5,1250,2350,1100,False,False,False,False,33,34,33,120,300,No,No,No,No,No
57,Blacktail Mountain Resort,"Lakeside, MT, USA",Lakeside,Montana,United States,https://www.indyskipass.com/our-resorts/blacktail-mountain-resort,https://blacktailmountain.com,48.0148365,-114.3721471,1440,False,False,False,False,False,1000,29,,,4,5340,6780,1440,False,True,False,False,15,65,20,250,400,No,No,No,Yes,No
58,Blue Knob All Season Resort,"Claysburg, PA, USA",Claysburg,Pennsylvania,United States,https://www.indyskipass.com/our-resorts/blue-knob-all-season-resort,https://blueknob.com,40.2885997,-78.5666261,1068,False,False,False,False,False,300,34,,,6,2074,3142,1068,True,True,False,False,29,40,31,124,150,No,No,Yes,Yes,No
59,Bolton Valley Resort,"Burlington, VT, USA",Burlington,Vermont,United States,https://www.indyskipass.com/our-resorts/bolton-valley-resort,https://www.boltonvalley.com,44.4223862,-72.8538529,1704,False,False,False,False,False,300,71,,,6,2100,3150,1704,True,True,False,False,34,38,28,312,357,No,No,Yes,Yes,No
60,Bottineau Winter Park,"Bottineau , ND, USA",Bottineau,North Dakota,United States,https://www.indyskipass.com/our-resorts/bottineau-winter-park,https://skibwp.com,48.950695,-100.4775329,200,False,False,False,False,False,17,9,,,6,2260,2460,200,True,True,False,False,40,40,20,70,170,No,No,Yes,Yes,No
372,Bousquet Mountain,"Pittsfield, MA",Pittsfield,Massachusetts,United States,https://www.indyskipass.com/our-resorts/bousquet-mountain-0,https://bousquetmountain.com/,42.4190908,-73.2791733,750,False,False,False,False,False,2000,55,,,7,1068,1818,750,True,True,False,False,17,26,57,21,63,No,No,Yes,Yes,No
388,Bruce Mound Winter Sports Area,"Merrillan, WI",Merrillan,Wisconsin,United States,https://www.indyskipass.com/our-resorts/bruce-mound-winter-sports-area,https://www.clarkcountywi.gov/brucemound?fbclid=IwY2xjawGGKnNleHRuA2FlbQIxMAABHVI0TRWfgUqgH2E-x8t200vmclOlQI6wlMJneID4P6hL7n2rBYvFIMewtg_aem___GnBCZLiGgScH-L8YrkfA,44.4462814,-90.7882194,375,False,False,False,False,False,40,10,,,5,1000,1375,375,True,True,False,False,17,17,63,12,53,No,No,Yes,Yes,No
61,Brundage Mountain Resort,"McCall, ID, USA",McCall,Idaho,United States,https://www.indyskipass.com/our-resorts/brundage-mountain-resort,https://brundage.com,45.0054,-116.1569924,1921,False,False,False,False,False,1920,70,,,6,5882,7803,1921,False,True,False,False,21,33,46,320,430,No,No,No,Yes,No
62,Bryce Resort,"Basye, VA, USA",Basye,Virginia,United States,https://www.indyskipass.com/our-resorts/bryce-resort,https://bryceresort.com,38.8174554,-78.7682726,500,False,False,False,False,False,32,8,,,4,1250,1750,500,True,False,False,False,40,50,10,40,80,No,No,Yes,No,No
63,Buck Hill,"Burnsville, MN, USA",Burnsville,Minnesota,United States,https://www.indyskipass.com/our-resorts/buck-hill,https://buckhill.com,44.724844,-93.2862539,309,False,False,False,False,False,45,15,,,10,919,1225,309,True,True,False,False,40,40,20,60,69,No,No,Yes,Yes,No
266,Burke Mountain,"East Burke, VT, USA",Burke,Vermont,United States,https://www.indyskipass.com/our-resorts/burke-mountain,https://www.skiburke.com,44.62870605,-71.91029195,2011,False,False,False,False,True,178,54,,,4,1210,3267,2011,False,True,False,False,8,48,44,150,225,No,No,No,Yes,Yes
64,Caberfae Peaks,"Cadillac, MI, USA",Cadillac,Michigan,United States,https://www.indyskipass.com/our-resorts/caberfae-peaks,https://caberfaepeaks.com,44.2447088,-85.7231528,485,False,False,False,False,False,200,27,,,5,1076,1561,485,True,True,False,False,33,33,33,120,190,No,No,Yes,Yes,No
65,Calabogie Peaks Resort,"Calabogie, ON, CA",Calabogie,Ontario,Canada,https://www.indyskipass.com/our-resorts/calabogie-peaks-resort,https://www.calabogie.com,45.274401,-76.7829706,781,False,False,False,False,False,80,25,,,3,505,1285,781,False,True,False,False,30,45,25,37,67,No,No,No,Yes,No
275,Caledonia Nordic Ski Club,"Prince George, BC, CA",Prince George,British Columbia,Canada,https://www.indyskipass.com/our-resorts/caledonia-nordic-ski-club,https://caledonianordic.com/trails-facilities/webcams,53.970752907698,-122.87265744481,,True,False,True,True,False,,55,34,55,,,,,True,False,False,True,,,,,,No,No,Yes,No,No
346,Camden Snow Bowl,"Camden, Maine",Camden,Maine,United States,https://www.indyskipass.com/our-resorts/camden-snow-bowl,https://camdensnowbowl.com/,44.217698441191,-69.131466755139,1070,False,False,False,False,False,105,15,,,3,216,1286,1070,True,True,False,False,30,60,10,41,100,No,No,Yes,Yes,No
367,Camp Fortune,"Chelsea, Quebec, Canada",Chelsea,Quebec,Canada,https://www.indyskipass.com/our-resorts/camp-fortune,https://campfortune.com/winter/,45.5090169,-75.8537991,627,False,False,False,False,False,93,27,,,8,23,650,627,True,True,False,False,17,46,37,71,184,No,No,Yes,Yes,No
66,Canaan Valley,"Davis, WV, USA",Davis,West Virginia,United States,https://www.indyskipass.com/our-resorts/canaan-valley,https://www.canaanresort.com,39.029186666679,-79.460698240724,850,False,False,False,False,False,90,47,,,6,3430,4280,850,False,False,False,False,20,36,44,117,251,No,No,No,No,No
67,Cannon Mountain,"Franconia, NH, USA",Franconia,New Hampshire,United States,https://www.indyskipass.com/our-resorts/cannon-mountain,https://www.cannonmt.com,44.1773749,-71.7044046,2180,False,False,False,False,False,285,97,,,10,1900,4080,2180,False,True,False,False,15,52,33,160,240,No,No,No,Yes,No
345,Cape Smokey,"Ingonish Beach, Nova Scotia, CA",Ingonish Beach,Nova Scotia,Canada,https://www.indyskipass.com/our-resorts/cape-smokey,https://capesmokey.ca/,46.627615294095,-60.421888642657,1000,False,False,False,False,False,150,16,,,2,50,1050,1000,False,False,False,False,25,50,26,236,275,No,No,No,No,No
341,Cascade Powder Guides,,,,,https://www.indyskipass.com/our-resorts/cascade-powder-guides,,,,,False,False,False,False,False,,,,,,,,,False,False,False,False,,,,,,No,No,No,No,No
384,Cascade Welcome Center,"Lake Placid, New York",Lake Placid,New York,United States,https://www.indyskipass.com/our-resorts/cascade-welcome-center,https://adk.org/cascade-welcome-center/,44.2412103,-73.9263423,,True,False,True,True,False,,12,12,20,,,,,True,False,False,True,,,,,,No,No,Yes,No,No
265,Castle Mountain Resort,"Pincher Creek, AB, CA",Pincher Creek,Alberta,Canada,https://www.indyskipass.com/our-resorts/castle-mountain-resort,https://www.skicastle.ca/,49.3191188,-114.4151632,2845,False,False,False,False,False,3592,95,,,6,1425,2295,2845,False,True,False,False,10,25,65,335,475,No,No,No,Yes,No
69,Cataloochee Ski Area,"Maggie Valley, NC, USA",Maggie Valley,North Carolina,United States,https://www.indyskipass.com/our-resorts/cataloochee-ski-area,https://cataloochee.com,35.5592351,-83.0949862,740,False,False,False,False,False,260,18,,,5,4660,5400,740,True,True,False,False,44,39,17,21,35,No,No,Yes,Yes,No
70,Catamount Mountain Resort,"South Egremont, MA, USA",Egremont,Massachusetts,United States,https://www.indyskipass.com/our-resorts/catamount-mountain-resort,https://catamountski.com,42.1690998,-73.4795061,1000,False,False,False,False,False,150,44,,,8,1000,2000,1000,True,True,False,False,35,42,23,60,80,No,No,Yes,Yes,No
276,Catamount Outdoor Family Center,"Williston, VT, USA",Williston,Vermont,United States,https://www.indyskipass.com/our-resorts/catamount-outdoor-family-center,https://catamountoutdoor.org/,44.448316445224,-73.048833333583,250,True,False,True,True,False,,100,24,40,,,,,True,False,True,True,,,,,,Yes,No,Yes,No,No
380,Cazenovia Ski Club,"Cazenovia, New York",Cazenovia,New York,United States,https://www.indyskipass.com/our-resorts/cazenovia-ski-club,https://skicaz.com/,42.97673,-75.8582938,500,False,False,False,False,False,98,14,,,2,960,1460,500,False,False,False,False,38,31,31,99,225,No,No,No,No,No
317,Cherry Peak,"Richmond, UT, USA",Richmond,Utah,United States,https://www.indyskipass.com/our-resorts/cherry-peak,https://www.skicherrypeak.us/,41.636244851822,-112.01267522305,1265,False,False,False,False,True,400,38,,,4,5775,7040,1265,True,True,False,False,40,40,20,320,550,No,No,Yes,Yes,Yes
71,Chestnut Mountain Resort,"Galena, IL, USA",Galena,Illinois,United States,https://www.indyskipass.com/our-resorts/chestnut-mountain-resort,https://www.chestnutmtn.com,42.319017,-90.3963733,600,False,False,False,False,False,59,19,,,9,420,1020,600,True,True,False,False,30,40,30,50,100,No,No,Yes,Yes,No
72,China Peak,"Lakeshore, CA, USA",Lakeshore,California,United States,https://www.indyskipass.com/our-resorts/china-peak,https://www.skichinapeak.com,37.2364356,-119.1599511,1700,False,False,False,False,False,500,55,,,9,7000,8700,1700,False,True,False,False,30,50,20,183,300,No,No,No,Yes,No
383,Christie Mountain,"Bruce, WI",Bruce,Wisconsin,United States,https://www.indyskipass.com/our-resorts/christie-mountain,https://www.christiemountain.com/,45.5090962,-91.3833987,350,False,False,False,False,False,100,33,,,5,1300,1650,350,True,True,False,False,34,24,42,33,170,No,No,Yes,Yes,No
74,Cooper Spur Ski Area,"Parkdale, OR, USA",Parkdale,Oregon,United States,https://www.indyskipass.com/our-resorts/cooper-spur-ski-area,https://www.cooperspur.com,45.4124145,-121.607698,400,False,False,False,False,False,50,9,,,2,3969,4400,400,True,False,False,False,20,70,10,46,89,No,No,Yes,No,No
277,Crosscut Mountain Sports Center,"Bozeman, MT, USA",Bozeman,Montana,United States,https://www.indyskipass.com/our-resorts/crosscut-mountain-sports-center,https://www.crosscutmt.org/,45.847946445692,-110.80215582992,600,True,False,True,True,False,,35,27,45,,,,,True,False,True,True,,,,,,Yes,No,Yes,No,No
73,Crystal Mountain,"Thompsonville, MI, USA",Thompsonville,Michigan,United States,https://www.indyskipass.com/our-resorts/crystal-mountain,https://www.crystalmountain.com,44.52010072,-85.99161557,375,False,False,False,False,False,103,59,,,8,757,1132,375,True,True,False,False,22,48,30,132,230,No,No,Yes,Yes,No
156,Crystal Ridge,"Franklin, WI, USA",Franklin,Wisconsin,United States,https://www.indyskipass.com/our-resorts/crystal-ridge,https://crystalridge.com/,42.9208017,-88.0172624,230,False,False,False,False,False,50,6,,,5,725,885,230,True,True,False,False,39,38,23,40,160,No,No,Yes,Yes,No
357,Cupid Valley,"Joetsu, Niigata 942-0534, Japan",Joetsu,Niigata,Japan,https://www.indyskipass.com/our-resorts/cupid-valley,https://www.yukidaruma-kogen.com/winter.html,37.0552643,138.4817142,1607,False,False,False,False,False,77,12,,,3,1411,3018,1607,False,False,False,False,40,40,20,49,56,No,No,No,No,No
75,Dartmouth Skiway,"Lyme Center, NH, USA",Lyme,New Hampshire,United States,https://www.indyskipass.com/our-resorts/dartmouth-skiway,https://sites.dartmouth.edu/skiway/,43.787748,-72.1021183,986,False,False,False,False,False,100,28,,,4,700,1680,986,False,True,False,False,40,40,20,100,250,No,No,No,Yes,No
76,Detroit Mountain,"Detroit Lakes, MN, USA",Detroit Lakes,Minnesota,United States,https://www.indyskipass.com/our-resorts/detroit-mountain,https://detroitmountain.com,46.8130854,-95.785864,210,False,False,False,False,False,45,21,,,6,1335,1545,210,True,True,False,False,35,35,30,21,45,No,No,Yes,Yes,No
77,Dodge Ridge,"Pinecrest, CA, USA",Pinecrest,California,United States,https://www.indyskipass.com/our-resorts/dodge-ridge,https://dodgeridge.com,38.1898028,-119.9584442,1600,False,False,False,False,False,862,67,,,11,6600,8200,1600,False,True,False,False,25,50,25,350,560,No,No,No,Yes,No
279,Dog Creek Lodge & Nordic Center,"Whitefish, MT, USA",Whitefish,Montana,United States,https://www.indyskipass.com/our-resorts/dog-creek-lodge-nordic-center,http://www.dogcreeklodge.com,48.591109845438,-114.60616667171,440,True,False,True,True,False,,25,22,36,,,,,False,False,False,True,,,,,,No,No,No,No,No
362,Dynaland,"Gujo, Gifu, Japan",Gujo,Gifu,Japan,https://www.indyskipass.com/our-resorts/dynaland,https://www.dynaland.co.jp/,35.9902088,136.8679602,1467,False,False,False,False,False,198,18,,,5,3228,4695,1467,True,True,False,False,40,32,25,67,197,No,No,Yes,Yes,No
264,Eagle Point,"Beaver, UT, USA",Beaver,Utah,United States,https://www.indyskipass.com/our-resorts/eagle-point,https://www.eaglepointresort.com,38.3203245,-112.3864365,1500,False,False,False,False,False,650,40,,,5,9100,10600,1500,False,True,False,False,40,25,35,350,450,No,No,No,Yes,No
79,Eaglecrest,"Juneau, AK, USA",Juneau,Alaska,United States,https://www.indyskipass.com/our-resorts/eaglecrest,https://skieaglecrest.com,58.2745312,-134.5153968,1620,False,False,False,False,False,640,36,,,4,1130,2750,1620,True,True,False,False,20,40,40,360,615,No,No,Yes,Yes,No
80,Echo Mountain,"Evergreen, CO, USA",Evergreen,Colorado,United States,https://www.indyskipass.com/our-resorts/echo-mountain,https://echomtn.com,39.6845817,-105.5219731,600,False,False,False,False,False,60,8,,,2,10550,10650,600,True,True,False,False,40,40,20,85,125,No,No,Yes,Yes,No
280,Enchanted Forest XC,"Red River, NM, USA",Red River,New Mexico,United States,https://www.indyskipass.com/our-resorts/enchanted-forest-xc,https://enchantedforestxc.com/,36.7001562,-105.3505175,400,True,False,True,True,False,,35,18,30,,,,,False,False,True,True,,,,,,Yes,No,No,No,No
392,Ercİyes Ski Resort,"Hisarcık Erciyes, 38220 Melikgazi/Kayseri, Türkiye",,Kayseri,Türkiye,https://www.indyskipass.com/our-resorts/erciyes-ski-resort,https://www.kayserierciyes.com.tr/,37.8781927,34.014505,1260,False,False,False,False,False,2965,31,,,24,6889,12851,1260,True,False,False,False,30,50,20,,,No,No,Yes,No,No
81,Fairmont Hot Springs,"Fairmont Hot Springs, BC, CA",Fairmont Hot Springs,British Columbia,Canada,https://www.indyskipass.com/our-resorts/fairmont-hot-springs,https://www.fairmonthotsprings.com,50.3388251,-115.8307703,1000,False,False,False,False,False,88,14,,,3,4200,5200,1000,True,True,False,False,20,60,20,100,550,No,No,Yes,Yes,No
281,Garnet Hill XC,"North River, NY, USA",North River,New York,United States,https://www.indyskipass.com/our-resorts/garnet-hill-xc,https://www.garnet-hill.com/outdoor-center/webcam/,43.7124502,-74.1073436,760,True,False,True,True,False,,35,34,55,,,,,False,False,False,True,,,,,,No,No,No,No,No
82,Geto Kogen,"Kita Kami, Tohoku, Japan",Kitakami,Iwate,Japan,https://www.indyskipass.com/our-resorts/geto-kogen,https://www.getokogen.com/,39.2366246,140.9036806,1410,False,False,False,False,False,,14,,,5,2100,3511,1410,True,True,False,False,40,40,20,880,1100,No,No,Yes,Yes,No
391,Glencoe Mountain Resort,"Glencoe, Scotland",Glencoe,Scotland,United Kingdom,https://www.indyskipass.com/our-resorts/glencoe-mountain-resort,https://www.glencoemountain.co.uk/,56.6324409,-4.8278692,2388,False,False,False,False,False,3953,20,,,8,1247,3635,2388,False,False,False,False,37,26,37,35,50,No,No,No,No,No
83,Granby Ranch,"Granby, CO, USA",Granby,Colorado,United States,https://www.indyskipass.com/our-resorts/granby-ranch,https://granbyranch.com,40.0446489,-105.9089128,1000,False,False,False,False,False,406,43,,,6,8202,9202,1000,True,True,False,False,28,40,32,85,187,No,No,Yes,Yes,No
84,Granite Peak,"Wausau, WI, USA",Wausau,Wisconsin,United States,https://www.indyskipass.com/our-resorts/granite-peak,https://www.skigranitepeak.com,44.9253444,-89.6958047,700,False,False,False,False,False,400,68,,,7,1242,1942,700,True,True,False,False,25,25,50,60,115,No,No,Yes,Yes,No
85,Great Bear Ski Valley,"Sioux Falls, SD, USA",Sioux Falls,South Dakota,United States,https://www.indyskipass.com/our-resorts/great-bear-ski-valley,https://www.greatbearpark.com,43.57814995,-96.66392463,182,False,False,False,False,False,21,14,,,3,1463,1645,182,True,True,False,False,40,40,20,41,94,No,No,Yes,Yes,No
86,Greek Peak Mountain Resort,"Cortland, NY, USA",Cortland,New York,United States,https://www.indyskipass.com/our-resorts/greek-peak-mountain-resort,https://www.greekpeak.net,42.5085935,-76.1474284,952,False,False,False,False,False,220,55,,,8,1148,2100,952,True,True,False,False,35,33,32,122,240,No,No,Yes,Yes,No
282,Hardwood Ski and Bike,"Barrie, ON, CA",Barrie,Ontario,Canada,https://www.indyskipass.com/our-resorts/hardwood-ski-and-bike,https://www.hardwoodskiandbike.ca/trail-conditions/,44.5176652,-79.594334,,True,False,True,True,False,,6,31,50,,,,,True,False,False,True,,,,,,No,No,Yes,No,No
349,Hatley Pointe,"Mars Hill, NC",Mars Hill,North Carolina,United States,https://www.indyskipass.com/our-resorts/hatley-pointe,https://www.hatleypointe.com/,35.954295621864,-82.508867754907,700,False,False,False,False,False,52,17,,,4,4000,4700,700,True,True,False,False,25,60,15,65,90,No,No,Yes,Yes,No
319,Hickory Ski Center,"Warrensburg, NY",Warrensburg,New York,United States,https://www.indyskipass.com/our-resorts/hickory-ski-center,https://skihickory.com/,43.476208724561,-73.816881816156,1200,False,False,False,False,False,225,18,,,4,700,1900,1200,True,False,False,False,31,33,39,80,260,No,No,Yes,No,No
283,High Point XC Ski Center,"Millford, NJ, USA",Milford,New Jersey,United States,https://www.indyskipass.com/our-resorts/high-point-xc-ski-center,https://www.xcskihighpoint.com/home,41.30625,-74.6733403,400,True,False,True,True,False,,6,15,25,,,,,True,False,False,True,,,,,,No,No,Yes,No,No
356,Hirugano Kogen Ski Resort,"Gujo, Gifu, Japan",Gujo,Gifu,Japan,https://www.indyskipass.com/our-resorts/hirugano-kogen-ski-resort,https://www.hiruganokogen.com/,36.0055471,136.9036975,492,False,False,False,False,False,75,8,,,3,2923,3415,492,False,False,False,False,45,55,0,165,200,No,No,No,No,No
368,Hoedown Hill,"Windsor, Colorado",Windsor,Colorado,United States,https://www.indyskipass.com/our-resorts/hoedown-hill,https://hoedownhill.com/,40.4520656,-104.9338958,200,False,False,False,False,False,10,6,,,4,,,200,True,True,False,False,50,50,0,26,36,No,No,Yes,Yes,No
284,Homestake Lodge,"Butte, MT, USA",Butte,Montana,United States,https://www.indyskipass.com/our-resorts/homestake-lodge,,45.9052331,-112.3834782,,True,False,True,True,False,,21,21,35,,,,,True,False,False,True,,,,,,No,No,Yes,No,No
87,Hoodoo,"Sisters, OR, USA",Sisters,Oregon,United States,https://www.indyskipass.com/our-resorts/hoodoo,http://skihoodoo.com,44.4086439,-121.8739961,1035,False,False,False,False,False,805,36,,,6,4668,5703,1035,True,True,False,False,21,41,38,250,400,No,No,Yes,Yes,No
88,Howelsen Hill,"Steamboat Springs, CO, USA",Steamboat Springs,Colorado,United States,https://www.indyskipass.com/our-resorts/howelsen-hill,https://steamboatsprings.net/131/Howelsen-Hill-Ski-Area,40.4833683,-106.8405524,440,True,True,False,False,False,50,19,,,4,6696,7136,440,True,True,False,True,15,43,42,150,250,No,Yes,Yes,Yes,No
323,Hudson Bay Mountain,"Smithers, BC, Canada",Smithers,British Columbia,Canada,https://www.indyskipass.com/our-resorts/hudson-bay-mountain,https://hudsonbaymountain.ca,54.765806606618,-127.26899513045,1750,False,False,False,False,False,700,44,,,3,3747,5413,1750,False,False,False,False,41,32,27,160,250,No,No,No,No,No
89,Huff Hills Ski Area,"Mandan, ND, USA",Mandan,North Dakota,United States,https://www.indyskipass.com/our-resorts/huff-hills-ski-area,https://www.huffhills.com,46.627425,-100.7257943,400,False,False,False,False,False,70,16,,,4,1875,2257,400,True,True,False,False,25,25,50,55,101,No,No,Yes,Yes,No
373,Hunt Hollow Ski Club,"Naples, NY",Naples,New York,United States,https://www.indyskipass.com/our-resorts/hunt-hollow-ski-club,https://www.hunthollow.com/Home,42.645996,-77.4806785,875,False,False,False,False,False,100,21,,,4,1000,2030,875,True,True,False,False,32,21,48,46,72,No,No,Yes,Yes,No
90,Hurricane Ridge,"Port Angeles, WA, USA",Port Angeles,Washington,United States,https://www.indyskipass.com/our-resorts/hurricane-ridge,https://www.olympicnationalparks.com/things-to-do/hurricane-ridge/winter-at-hurricane-ridge/,47.9699846,-123.4977155,700,False,False,False,False,False,50,12,,,3,4800,5500,700,False,True,False,False,20,40,40,400,800,No,No,No,Yes,No
381,Innsbruck Ski & City Network,"Innsbruck, Austria",Innsbruck,Tyrol,Austria,https://www.indyskipass.com/our-resorts/innsbruck-ski-city-network,https://www.ski-plus-city.com/en/,47.1953877,11.1618082,5282,False,False,False,False,False,11614,,,,111,5741,11023,5282,False,True,False,False,,,,248,437,No,No,No,Yes,No
286,Jackson XC,"Jackson, NH, USA",Jackson,New Hampshire,United States,https://www.indyskipass.com/our-resorts/jackson-xc,,44.1455635,-71.1875049,1000,True,False,True,True,False,,60,62,100,,,,,False,False,True,True,,,,,,Yes,No,No,No,No
91,Jay Peak Resort,"Jay, VT, USA",Jay,Vermont,United States,https://www.indyskipass.com/our-resorts/jay-peak-resort,https://jaypeakresort.com,44.9379013,-72.5073526,2153,False,False,False,False,False,385,81,,,9,1815,3968,2153,False,True,False,False,20,40,40,347,497,No,No,No,Yes,No
92,Kamui Ski Links,"Asahikawa, Tohoku, Japan",Asahikawa,Hokkaido,Japan,https://www.indyskipass.com/our-resorts/kamui-ski-links,https://www.kamui-skilinks.com,43.704967,142.1845217,1968,False,False,False,False,False,,25,,,6,492,2463,1968,False,False,False,False,32,36,32,275,400,No,No,No,No,No
93,Kelly Canyon,"Ririe, ID, USA",Ririe,Idaho,United States,https://www.indyskipass.com/our-resorts/kelly-canyon,https://www.kellycanyonresort.com,43.6460169,-111.6324654,1200,False,False,False,False,False,640,27,,,5,5600,6800,1200,True,True,False,False,35,45,20,250,310,No,No,Yes,Yes,No
287,Kimberley Nordic Club,"Kimberley, BC, CA",Kimberley,British Columbia,Canada,https://www.indyskipass.com/our-resorts/kimberley-nordic-club,https://video.nest.com/live/TFdxOw34MU,49.6822765,-116.0095172,,True,False,True,True,False,,35,22,36,,,,,True,False,False,True,,,,,,No,No,Yes,No,No
314,King Pine,"Madison, NH, USA",Madison,New Hampshire,United States,https://www.indyskipass.com/our-resorts/king-pine,https://www.kingpine.com/,43.868280175903,-71.088944717979,350,False,False,False,False,True,48,23,,,6,500,850,350,True,True,False,False,50,30,20,68,90,No,No,Yes,Yes,Yes
94,Kiroro Snow World,"Otaru, Hokkaido, Japan",Otaru,Hokkaido,Japan,https://www.indyskipass.com/our-resorts/kiroro-snow-world,https://www.kiroro.co.,43.0663934,140.9833059,2165,False,False,False,False,False,,23,,,10,1706,3872,2165,True,False,False,False,40,30,30,840,1000,No,No,Yes,No,No
288,Leavenworth Winter Sports Club,"Leavenworth, WA, USA",Leavenworth,Washington,United States,https://www.indyskipass.com/our-resorts/leavenworth-winter-sports-club,https://skileavenworth.com/webcams,47.6141122,-120.6712683,235,True,False,True,True,False,,6,16,26,,,,,True,False,False,True,,,,,,No,No,Yes,No,No
95,Little Switzerland,"Slinger, WI, USA",Slinger,Wisconsin,United States,https://www.indyskipass.com/our-resorts/little-switzerland,https://www.littleswitz.com,43.3379806,-88.2815214,200,False,False,False,False,False,64,16,,,8,801,1001,200,True,True,False,False,30,40,30,50,200,No,No,Yes,Yes,No
96,Loch Lomond,"Thunder Bay, ON, CA",Thunder Bay,Ontario,Canada,https://www.indyskipass.com/our-resorts/loch-lomond,https://www.lochlomond.ca/,48.2939871,-89.3508156,751,False,False,False,False,False,70,18,,,3,699,1450,751,True,True,False,False,30,40,30,80,169,No,No,Yes,Yes,No
97,Lost Trail Powder Mountain,"Darby , MT, USA",Darby,Montana,United States,https://www.indyskipass.com/our-resorts/lost-trail-powder-mountain,https://losttrail.com,45.6922649,-113.9546482,1200,False,False,False,False,False,1800,68,,,8,7000,8200,1200,False,True,False,False,40,40,20,350,450,No,No,No,Yes,No
369,Lost Valley,"Auburn, ME",Auburn,Maine,United States,https://www.indyskipass.com/our-resorts/lost-valley,https://www.lostvalleyski.com/,44.1360699,-70.2855319,233,False,False,False,False,False,45,22,,,3,255,495,233,True,True,False,False,26,29,45,12,16,No,No,Yes,Yes,No
98,Loup Loup Ski Bowl,"Twisp, WA, USA",Twisp,Washington,United States,https://www.indyskipass.com/our-resorts/loup-loup-ski-bowl,https://www.skitheloup.com,48.3943616,-119.9135503,1240,True,True,False,False,False,300,14,31,50,3,4020,5260,1240,False,True,True,True,35,15,50,86,120,Yes,Yes,No,Yes,No
377,Loveland Ski Area,"Georgetown, CO",Georgetown,Colorado,United States,https://www.indyskipass.com/our-resorts/loveland-ski-area,,39.6800625,-105.9005334,2210,False,False,False,False,False,1800,94,,,12,10800,13010,2210,False,True,False,False,13,41,46,324,538,No,No,No,Yes,No
99,Lutsen Mountains,"Lutsen, MN, USA",Lutsen,Minnesota,United States,https://www.indyskipass.com/our-resorts/lutsen-mountains,https://www.lutsen.com,47.663713,-90.716136,825,False,False,False,False,False,1000,95,,,7,863,1688,825,False,True,False,False,18,47,35,120,160,No,No,No,Yes,No
100,Madarao Ski Resort,"Myoko Kogen, Nagano",Myoko,Niigata,Japan,https://www.indyskipass.com/our-resorts/madarao-ski-resort,https://www.madarao.jp,36.8524572,138.2880255,1443,False,False,False,False,False,,32,,,10,2985,4429,1443,False,True,False,False,30,35,35,,,No,No,No,Yes,No
101,Magic Mountain,"Londonderry , VT, USA",Londonderry,Vermont,United States,https://www.indyskipass.com/our-resorts/magic-mountain,https://www.magicmtn.com,43.20191601,-72.77132459,1500,False,False,False,False,False,205,50,,,5,1350,2850,1500,False,True,False,False,20,35,45,150,300,No,No,No,Yes,No
353,Maiko Resort,"Maiko, Minamiuonuma, Niigata, Japan",Minamiuonuma,Niigata,Japan,https://www.indyskipass.com/our-resorts/maiko-resort,https://www.snowjapan.com/listings/resort-spotlights/maiko-snow-resort,36.982265957181,138.82445635587,2166,False,False,False,False,False,,26,,,10,853,3019,2166,True,True,False,False,40,40,20,350,500,No,No,Yes,Yes,No
387,Malá Úpa,"Malá Úpa, Czechia",Malá Úpa,Hradec Králové Region,Czechia,https://www.indyskipass.com/our-resorts/mala-upa,https://www.skimu.cz/zima,50.7201426,15.5505559,853,False,False,False,False,False,1680,8,,,9,3264,4134,853,False,True,False,False,0,39,61,26,28,No,No,No,Yes,No
102,Manning Park,"Hope, BC, CA",Hope,British Columbia,Canada,https://www.indyskipass.com/our-resorts/manning-park,https://www.manningpark.com,49.0701941,-120.9521503,1417,True,True,False,False,False,140,35,39,64,4,4451,5868,1417,False,True,True,True,23,30,47,300,393,Yes,Yes,No,Yes,No
289,Manning Park XC,"Hope, BC, CA",Hope,British Columbia,Canada,https://www.indyskipass.com/our-resorts/manning-park-xc,https://www.manningpark.com/weather-webcams-and-trail-status/,49.063089,-120.7897713,1417,True,False,True,True,False,,35,39,64,,,,,False,False,True,True,,,,,,Yes,No,No,No,No
103,Maple Ski Ridge,"Schenectady, NY, USA",Schenectady,New York,United States,https://www.indyskipass.com/our-resorts/maple-ski-ridge,https://www.mapleskiridge.com/,42.8170709,-74.0371723,270,False,False,False,False,False,60,8,,,4,450,720,270,True,False,False,False,25,38,37,65,94,No,No,Yes,No,No
290,Maplelag Resort,"Callaway, MN, USA",Callaway,Minnesota,United States,https://www.indyskipass.com/our-resorts/maplelag-resort,https://www.maplelag.com/,47.009156,-95.7793197,110,True,False,True,True,False,,17,47,76,,,,,False,False,False,True,,,,,,No,No,No,No,No
104,Marquette Mountain,"Marquette, MI, USA",Marquette,Michigan,United States,https://www.indyskipass.com/our-resorts/marquette-mountain,https://marquettemountain.com,46.5082074,-87.42339,540,False,False,False,False,False,170,29,,,4,757,1297,540,True,True,False,False,16,42,42,210,300,No,No,Yes,Yes,No
105,Massanutten Resort,"Massanutten, VA, USA",Massanutten,Virginia,United States,https://www.indyskipass.com/our-resorts/massanutten-resort,https://www.massresort.com,38.4035359,-78.7572956,1100,False,False,False,False,False,82,23,,,7,1740,2850,1100,True,True,False,False,30,35,35,36,85,No,No,Yes,Yes,No
382,Massif du Sud,"Saint-Philémon, Quebec",Saint-Philémon,Quebec,Canada,https://www.indyskipass.com/our-resorts/massif-du-sud,https://massifdusud.net/en/,46.621511,-70.5247494,1686,False,False,False,False,False,420,37,,,2,1316,3002,1686,False,True,False,False,14,22,64,144,360,No,No,No,Yes,No
267,McIntyre Ski Area,"Manchester, NH, USA",Manchester,New Hampshire,United States,https://www.indyskipass.com/our-resorts/mcintyre-ski-area,https://www.mcintyreskiarea.com,43.00755388,-71.44381919,200,False,False,False,False,True,26,11,,,5,340,510,200,True,True,False,False,90,10,0,50,55,No,No,Yes,Yes,Yes
106,Meadowlark Ski Resort,"Ten Sleep, WY, USA",Ten Sleep,Wyoming,United States,https://www.indyskipass.com/our-resorts/meadowlark-ski-resort,https://snoflo.org/ski-area/big-horn-ski-resort,44.1636263,-107.2238357,735,False,False,False,False,False,300,14,,,2,8465,9200,735,False,False,False,False,30,40,30,120,260,No,No,No,No,No
292,Methow Trails XC,"Winthrop, WA, USA",Winthrop,Washington,United States,https://www.indyskipass.com/our-resorts/methow-trails-xc,https://methowtrails.org/,48.4681634,-120.1825961,2250,True,False,True,True,False,,64,124,200,,,,,False,False,False,True,,,,,,No,No,No,No,No
348,Middlebury Snowbowl,"Hancock, VT",Hancock,Vermont,United States,https://www.indyskipass.com/our-resorts/middlebury-snowbowl,https://www.middleburysnowbowl.com/,43.939029933484,-72.957726677625,1020,False,False,False,False,False,200,17,,,4,1700,2720,1020,True,False,False,False,21,44,35,200,250,No,No,Yes,No,No
293,Minocqua Winter Park,"Minocqua, WI, USA",Minocqua,Wisconsin,United States,https://www.indyskipass.com/our-resorts/minocqua-winter-park,,45.830018,-89.8977884,,True,False,True,True,False,,30,53,86,,,,,False,False,False,True,,,,,,No,No,No,No,No
107,Mission Ridge,"Wenatchee, WA, USA",Wenatchee,Washington,United States,https://www.indyskipass.com/our-resorts/mission-ridge,https://www.missionridge.com,47.2924657,-120.4024513,2250,False,False,False,False,False,2000,54,,,7,4570,6820,2250,True,True,False,False,10,60,30,200,400,No,No,Yes,Yes,No
108,Mohawk Mountain,"Cornwall, CT, USA",Cornwall,Connecticut,United States,https://www.indyskipass.com/our-resorts/mohawk-mountain,https://www.mohawkmtn.com,41.838231,-73.3176389,650,False,False,False,False,False,112,26,,,8,950,1600,650,True,False,False,False,30,40,30,62,146,No,No,Yes,No,No
374,Mont Rigaud,"Riquad QC, Canada",Rigaud,Quebec,Canada,https://www.indyskipass.com/our-resorts/mont-rigaud,https://ski.montrigaud.com/home,45.4680559,-74.4091987,394,False,False,False,False,False,40,15,,,4,331,728,394,True,True,False,False,40,20,40,4,6,No,No,Yes,Yes,No
268,Mont Ripley Ski Area,"Hancock , MI, USA",Hancock,Michigan,United States,https://www.indyskipass.com/our-resorts/mont-ripley-ski-area,https://www.mtu.edu,47.12809236,-88.56009945,440,False,False,False,False,True,115,24,,,4,650,1100,440,True,True,False,False,20,30,50,275,390,No,No,Yes,Yes,Yes
109,Montage Mountain,"Scranton PA, PA, USA",Scranton,Pennsylvania,United States,https://www.indyskipass.com/our-resorts/montage-mountain,https://www.montagemountainresorts.com,41.3512429,-75.6654972,1000,False,False,False,False,False,140,27,,,7,960,1960,1000,True,True,False,False,20,45,35,25,41,No,No,Yes,Yes,No
110,Montana Snowbowl,"Missoula, MT, USA",Missoula,Montana,United States,https://www.indyskipass.com/our-resorts/montana-snowbowl,https://www.montanasnowbowl.com,47.014436,-114.0021483,2600,False,False,False,False,False,2000,68,,,6,4980,7600,2600,False,False,False,False,20,40,40,300,486,No,No,No,No,No
322,Moose Mountain,"Fairbanks, AK",Fairbanks,Alaska,United States,https://www.indyskipass.com/our-resorts/moose-mountain,https://shredthemoose.com/,64.941226825412,-147.99068199473,1300,False,False,False,False,False,750,42,,,1,680,1987,1300,False,False,False,False,10,45,45,,,No,No,No,No,No
111,Mount Baldy Ski Area,"Thunder Bay, ON, CA",Thunder Bay,Ontario,Canada,https://www.indyskipass.com/our-resorts/mount-baldy-ski-area,https://www.skimountbaldy.ca/,48.5258002,-89.1308235,476,False,False,False,False,False,200,12,,,3,1600,2076,476,True,True,False,False,20,40,40,47,79,No,No,Yes,Yes,No
113,Mount Kato,"Mankato, MN, USA",Mankato,Minnesota,United States,https://www.indyskipass.com/our-resorts/mount-kato,https://www.mountkato.com,44.1331301,-94.0359465,240,False,False,False,False,False,55,19,,,10,790,1030,240,True,True,False,False,21,42,37,50,124,No,No,Yes,Yes,No
114,Mountain High,"Wrightwood, CA, USA",Wrightwood,California,United States,https://www.indyskipass.com/our-resorts/mountain-high,https://www.mthigh.com,34.3769418,-117.6941045,1600,False,False,False,False,False,220,50,,,14,6600,8200,1600,True,True,False,False,25,40,35,120,310,No,No,Yes,Yes,No
338,Mt Eyak,,,,,https://www.indyskipass.com/our-resorts/mt-eyak,,,,,False,False,False,False,False,,,,,,,,,False,False,False,False,,,,,,No,No,No,No,No
347,Mt. Abram,"Greenwood, Maine",Greenwood,Maine,United States,https://www.indyskipass.com/our-resorts/mt-abram,https://mtabram.com/,44.379734955115,-70.706811255825,1050,False,False,False,False,False,450,43,,,4,950,2000,1050,False,False,False,False,35,42,23,115,160,No,No,No,No,No
379,Mt. Holiday,"Traverse City, MI",Traverse City,Michigan,United States,https://www.indyskipass.com/our-resorts/mt-holiday,https://mt-holiday.com/ski-and-snowboarding/,44.7423148,-85.5135188,200,False,False,False,False,False,45,12,,,4,240,440,200,True,True,False,False,30,40,30,59,175,No,No,Yes,Yes,No
181,Mt. Hood Meadows,"Mt. Hood, OR, USA",Mount Hood,Oregon,United States,https://www.indyskipass.com/our-resorts/mt-hood-meadows,https://www.skihood.com,45.3317552,-121.6677651,1939,True,True,False,False,False,2150,142,,,12,5366,7305,1939,True,True,True,True,32,40,28,430,500,Yes,Yes,Yes,Yes,No
169,Mt. Racey Ski Resort,"Yubari, Hokkaido",Yubari,Hokkaido,Japan,https://www.indyskipass.com/our-resorts/mt-racey-ski-resort,,43.0503785,141.9688449,1326,False,False,False,False,False,,18,,,4,977,2303,1326,False,True,False,False,20,40,40,315,475,No,No,No,Yes,No
116,Mt. Shasta,"Mount Shasta, CA, USA",Mount Shasta,California,United States,https://www.indyskipass.com/our-resorts/mt-shasta,https://www.skipark.com,41.321106,-122.2060823,2036,True,True,False,False,False,635,38,,,6,5500,7536,2036,True,True,True,True,20,45,35,157,472,Yes,Yes,Yes,Yes,No
332,Mt. Washington,,,,,https://www.indyskipass.com/our-resorts/mt-washington,https://www.mountwashington.ca/,49.804509751028,-125.26140942545,1657,False,False,False,False,False,1700,81,,,11,,,1657,False,True,False,False,30,40,30,457,733,No,No,No,Yes,No
360,Muica Snow Resort,"Minamiuonuma, Niigata, Japan",Minamiuonuma,Niigata,Japan,https://www.indyskipass.com/our-resorts/muica-snow-resort,https://www.muikamachi.com/ski/,37.0719009,138.8433196,1312,False,False,False,False,False,244,12,,,4,1142,2454,1312,False,True,False,False,25,40,35,394,590,No,No,No,Yes,No
354,Nayoro Piyashiri Ski Resort,"Nisshin, Nayoro City, Hokkaido, Japan",Nayoro,Hokkaido,Japan,https://www.indyskipass.com/our-resorts/nayoro-piyashiri-ski-resort,https://www.nayoro.co.jp/piyashiri/,44.404547241474,142.51389060792,1578,False,False,False,False,False,,12,,,3,633,2211,1578,True,False,False,False,33,44,22,47,71,No,No,Yes,No,No
295,Nelson Nordic Ski Club,"Nelson, BC, CA",Nelson,British Columbia,Canada,https://www.indyskipass.com/our-resorts/nelson-nordic-ski-club,https://nelsonnordicski.ca/webcam/webcam.html,49.409235,-117.2137275,,True,False,True,True,False,,15,18,30,,,,,True,False,True,True,,,,,,Yes,No,Yes,No,No
311,Nickel Plate Cross Country Ski Club,"Hedley, BC, CA",Hedley,British Columbia,Canada,https://www.indyskipass.com/our-resorts/nickel-plate-cross-country-ski-club,https://nickelplatenordic.org/livecam/,49.383699,-119.9567878,495,True,False,True,True,False,,28,31,50,,,,,False,False,True,True,,,,,,Yes,No,No,No,No
358,Ninox Snow Park,"Niigata, Shibata, Kamisanko, 大平国有林無番地",Shibata,Niigata,Japan,https://www.indyskipass.com/our-resorts/ninox-snow-park,https://www.ninox.co.jp/,37.9268164,139.4653277,709,False,False,False,False,False,49,2,,,2,1040,1748,709,True,True,False,False,65,35,0,71,472,No,No,Yes,Yes,No
117,Nordic Mountain,"Wild Rose, WI, USA",Wild Rose,Wisconsin,United States,https://www.indyskipass.com/our-resorts/nordic-mountain,https://nordicmountain.com,44.1214576,-89.1838618,265,False,False,False,False,False,60,16,,,5,925,1190,265,True,True,False,False,31,46,23,50,200,No,No,Yes,Yes,No
386,Norway Mountain,"Norway, MI",Norway,Michigan,United States,https://www.indyskipass.com/our-resorts/norway-mountain,http://www.norwaymt.com/,45.7894874,-87.8724272,500,False,False,False,False,False,80,17,,,6,835,1335,500,False,True,False,False,6,66,28,33,50,No,No,No,Yes,No
118,Nubs Nob,"Harbor Springs, MI, USA",Harbor Springs,Michigan,United States,https://www.indyskipass.com/our-resorts/nubs-nob-0,https://www.nubsnob.com,45.471166,-84.9069303,425,False,False,False,False,False,248,53,,,10,925,1350,425,True,True,False,False,29,38,33,125,188,No,No,Yes,Yes,No
119,Ober Mountain,"Gatlinburg, TN, USA",Gatlinburg,Tennessee,United States,https://www.indyskipass.com/our-resorts/ober-mountain,https://obergatlinburg.com,35.7031411,-83.5608417,660,False,False,False,False,False,50,10,,,3,2682,3208,660,True,True,False,False,20,60,20,16,45,No,No,Yes,Yes,No
120,Okunakayama Kogen,"Morioka, Tohoku, Japan",Morioka,Iwate,Japan,https://www.indyskipass.com/our-resorts/okunakayama-kogen,https://www.okunakayamakogen.jp/,40.0874,141.1715197,1273,False,False,False,False,False,,11,,,5,2132,3339,1273,True,True,False,False,30,40,30,,,No,No,Yes,Yes,No
352,Palcall Tsumagoi Resort,"Gunma, Agatsuma District, Tsumagoi, Japan",Tsumagoi,Gunma,Japan,https://www.indyskipass.com/our-resorts/palcall-tsumagoi-resort,https://tsumagoiskiresort.life/,36.55600188804,138.46402342241,2395,False,False,False,False,False,,22,,,5,4495,6890,2395,False,True,False,False,62,33,5,35,63,No,No,No,Yes,No
121,Pass Powderkeg,"Crowsnest Pass, AB, CA",,Alberta,Canada,https://www.indyskipass.com/our-resorts/pass-powderkeg,https://www.passpowderkeg.com,49.60297943,-114.4492817,985,False,False,False,False,False,48,27,,,3,4570,5380,985,True,True,False,False,22,30,48,75,200,No,No,Yes,Yes,No
122,Pats Peak,"Henniker, NH, USA",Henniker,New Hampshire,United States,https://www.indyskipass.com/our-resorts/pats-peak,https://www.patspeak.com,43.1639733,-71.8002399,770,False,False,False,False,False,115,28,,,11,690,1460,770,True,True,False,False,50,21,29,100,150,No,No,Yes,Yes,No
325,Paul Bunyan Ski Hill,"Lakewood, WI",Lakewood,Wisconsin,United States,https://www.indyskipass.com/our-resorts/paul-bunyan-ski-hill,https://skipaulbunyan.com/,45.325719991721,-88.524082142113,,False,False,False,False,True,,10,,,6,,,,False,False,False,False,30,20,50,,,No,No,No,No,Yes
123,Peek ‘n Peak,"Clymer, NY, USA",Clymer,New York,United States,https://www.indyskipass.com/our-resorts/peek-n-peak,https://www.pknpk.com,42.0623302,-79.7381204,400,False,False,False,False,False,105,27,,,9,1400,1800,400,True,True,False,False,16,61,23,200,384,No,No,Yes,Yes,No
124,Phoenix Mountain,"Grand Forks, BC, CA",Grand Forks,British Columbia,Canada,https://www.indyskipass.com/our-resorts/phoenix-mountain,https://www.skiphoenix.ca,49.103709,-118.5866193,705,False,False,False,False,False,9,22,,,2,4147,4652,705,True,True,False,False,19,52,29,45,75,No,No,Yes,Yes,No
125,Pine Mountain,"Iron Mountain, MI, USA",Iron Mountain,Michigan,United States,https://www.indyskipass.com/our-resorts/pine-mountain,https://www.pinemountainresort.com/,45.8391227,-88.0913177,364,False,False,False,False,False,40,35,,,4,1148,1512,364,True,True,False,False,35,35,30,30,50,No,No,Yes,Yes,No
126,Pippu Ski Resort,"Asahikawa, Hokkaido, Japan",Asahikawa,Hokkaido,Japan,https://www.indyskipass.com/our-resorts/pippu-ski-resort,http://yuyupippu.com/,43.9331104,142.4972506,1053,False,False,False,False,False,,9,,,3,820,1902,1053,True,True,False,False,30,50,20,,,No,No,Yes,Yes,No
127,Pomerelle Mountain Resort,"Burley, ID, USA",Burley,Idaho,United States,https://www.indyskipass.com/our-resorts/pomerelle-mountain-resort,https://www.pomerelle.com,42.3179871,-113.6103326,998,False,False,False,False,False,500,22,,,3,8762,9764,998,True,True,False,False,40,40,20,500,725,No,No,Yes,Yes,No
129,Powder Ridge,"Kimball, MN, USA",Kimball,Minnesota,United States,https://www.indyskipass.com/our-resorts/powder-ridge,https://powderridge.com,45.3438676,-94.3075934,300,False,False,False,False,False,60,13,,,6,500,790,300,True,True,False,False,45,40,15,60,75,No,No,Yes,Yes,No
333,Powderhorn,"Mesa, CO",,Colorado,United States,https://www.indyskipass.com/our-resorts/powderhorn,https://powderhorn.com/,39.070007153611,-108.15083984603,1697,False,False,False,False,False,1600,40,,,5,8200,9850,1697,False,True,False,False,30,30,40,250,457,No,No,No,Yes,No
297,Quarry Road Trails,"Waterville, ME, USA",Waterville,Maine,United States,https://www.indyskipass.com/our-resorts/quarry-road-trails,https://video.nest.com/live/HWvKmDXB1r,44.5826282,-69.6605718,270,True,False,True,True,False,,22,8,13,,,,,True,False,True,True,,,,,,Yes,No,Yes,No,No
344,Ragged Mountain,"Danbury, NH",Danbury,New Hampshire,United States,https://www.indyskipass.com/our-resorts/ragged-mountain,https://www.raggedmountainresort.com/,43.485425809051,-71.84227591883,1250,False,False,False,False,False,250,57,,,5,1000,2286,1250,False,True,False,False,30,40,30,105,150,No,No,No,Yes,No
298,Rangeley Lakes Trail Center,"Rangeley, ME, USA",Rangeley,Maine,United States,https://www.indyskipass.com/our-resorts/rangeley-lakes-trail-center,,44.9564326,-70.5684757,400,True,False,True,True,False,,35,34,55,,,,,False,False,False,True,,,,,,No,No,No,No,No
130,Red Lodge,"Billings, MT, USA",Billings,Montana,United States,https://www.indyskipass.com/our-resorts/red-lodge,https://www.redlodgemountain.com,45.19147328,-109.3352328,2400,False,False,False,False,False,1600,70,,,8,7433,9416,2400,False,True,False,False,19,27,54,280,375,No,No,No,Yes,No
299,Rikert Nordic Center,"Ripton, VT, USA",Ripton,Vermont,United States,https://www.indyskipass.com/our-resorts/rikert-nordic-center,https://www.rikertoutdoor.com/,43.954787,-72.9936673,350,True,False,True,True,False,,35,34,55,,,,,False,False,False,True,,,,,,No,No,No,No,No
131,Saddleback Mountain,"Rangeley, ME, USA",Rangeley,Maine,United States,https://www.indyskipass.com/our-resorts/saddleback-mountain,https://www.saddlebackmaine.com,44.9462173,-70.5296617,2000,False,False,False,False,False,600,68,,,6,2460,4120,2000,False,True,False,False,35,30,35,177,225,No,No,No,Yes,No
132,Saskadena Six Ski Area,"Woodstock, VT, USA",Woodstock,Vermont,United States,https://www.indyskipass.com/our-resorts/saskadena-six-ski-area,https://www.saskadenasix.com,43.6650614,-72.5458462,650,False,False,False,False,False,100,28,,,3,550,1200,650,False,True,False,False,30,40,30,42,82,No,No,No,Yes,No
133,Sasquatch Mountain Resort,"Agassiz, BC, CA",Agassiz,British Columbia,Canada,https://www.indyskipass.com/our-resorts/sasquatch-mountain-resort,https://sasquatchmountain.ca/,49.379918,-121.9380493,1200,False,False,False,False,False,205,36,,,4,3300,4500,1200,True,True,False,False,19,34,47,184,315,No,No,Yes,Yes,No
134,Schuss Mountain at Shanty Creek,"Bellaire, MI, USA",Bellaire,Michigan,United States,https://www.indyskipass.com/our-resorts/schuss-mountain-at-shanty-creek,https://www.shantycreek.com,44.940947,-85.1357063,450,False,False,False,False,False,81,42,,,7,625,1125,450,True,True,False,False,33,26,41,160,245,No,No,Yes,Yes,No
135,Shames Mountain,"Terrace, BC, CA",Terrace,British Columbia,Canada,https://www.indyskipass.com/our-resorts/shames-mountain,https://mymountaincoop.ca/,54.484131,-128.9553952,1600,False,False,False,False,False,252,30,,,3,2300,3900,1600,False,True,False,False,20,60,20,480,800,No,No,No,Yes,No
136,Shawnee Mountain Ski Area,"East Stroudsburg , PA, USA",East Stroudsburg,Pennsylvania,United States,https://www.indyskipass.com/our-resorts/shawnee-mountain-ski-area,https://www.shawneemt.com,41.03977382,-75.08480066,700,False,False,False,False,False,125,23,,,11,650,1350,700,True,True,False,False,43,31,26,50,117,No,No,Yes,Yes,No
188,Shimokura,"Hachimantai, Iwate, Japan",Hachimantai,Iwate,Japan,https://www.indyskipass.com/our-resorts/shimokura,https://www.hachimantai.co.jp/livecamera1/,39.8990404,140.9543099,1804,False,False,False,False,False,,7,,,3,1902,3707,1804,True,False,False,False,30,40,30,320,445,No,No,Yes,No,No
138,Silver Mountain,"Kellogg, ID, USA",Kellogg,Idaho,United States,https://www.indyskipass.com/our-resorts/silver-mountain,https://www.silvermt.com,47.4950187,-116.1343218,2200,False,False,False,False,False,1600,83,,,7,5800,6300,2200,False,True,False,False,20,40,40,300,400,No,No,No,Yes,No
269,Skaneateles Ski Club,"Syracuse, NY, USA",Syracuse,New York,United States,https://www.indyskipass.com/our-resorts/skaneateles-ski-club,https://www.skiskan.com/,42.91535333,-76.33377842,330,False,False,False,False,False,33,7,,,3,800,1200,330,True,False,False,False,45,40,15,100,200,No,No,Yes,No,No
139,Ski Big Bear,"Lackawaxen, PA, USA",Lackawaxen,Pennsylvania,United States,https://www.indyskipass.com/our-resorts/ski-big-bear,https://www.ski-bigbear.com,41.5233005,-75.0278006,650,False,False,False,False,False,26,18,,,7,550,1200,650,True,True,False,False,33,34,33,45,100,No,No,Yes,Yes,No
140,Ski Bluewood,"Dayton, WA, USA",Dayton,Washington,United States,https://www.indyskipass.com/our-resorts/ski-bluewood,https://bluewood.com,46.0824682,-117.853694,1120,False,False,False,False,False,450,25,,,4,4545,5665,1120,False,True,False,False,25,45,30,300,410,No,No,No,Yes,No
141,Ski Sawmill,"Morris, PA, USA",Morris,Pennsylvania,United States,https://www.indyskipass.com/our-resorts/ski-sawmill,https://skisawmill.com,41.5209883,-77.2925621,515,False,False,False,False,False,40,13,,,5,1700,2215,515,True,True,False,False,33,33,33,53,149,No,No,Yes,Yes,No
177,SkiWelt,"Kufstein, Austria",Kufstein,Tyrol,Austria,https://www.indyskipass.com/our-resorts/skiwelt,https://www.skiwelt.at/,47.4787937,12.2008647,4098,False,False,False,False,False,706,279,,,82,2034,6132,4098,True,True,False,False,40,42,18,157,394,No,No,Yes,Yes,No
142,Snow King Mountain Resort,"Jackson, WY, USA",Jackson,Wyoming,United States,https://www.indyskipass.com/our-resorts/snow-king-mountain-resort,https://snowkingmountain.com,43.4728087,-110.7586156,1560,False,False,False,False,False,500,46,,,8,6244,7804,1560,True,True,False,False,31,43,26,150,250,No,No,Yes,Yes,No
143,Snow Ridge,"Turin, NY, USA",,New York,United States,https://www.indyskipass.com/our-resorts/snow-ridge,https://snowridge.com,43.6397477,-75.4249888,500,False,False,False,False,False,150,33,,,5,1350,1850,500,True,True,False,False,11,30,59,230,300,No,No,Yes,Yes,No
144,Snowriver,"Wakefield, MI, USA",Wakefield,Michigan,United States,https://www.indyskipass.com/our-resorts/snowriver,https://www.snowriver.com,46.500921527786,-89.966801281413,538,False,False,False,False,False,400,71,,,11,1214,1752,538,False,True,False,False,30,40,30,204,278,No,No,No,Yes,No
145,Snowstar,"Andalusia, IL, USA",Andalusia,Illinois,United States,https://www.indyskipass.com/our-resorts/snowstar,https://skisnowstar.com,41.425203,-90.7487552,262,False,False,False,False,False,28,15,,,6,528,790,262,True,True,False,False,25,50,25,38,54,No,No,Yes,Yes,No
146,Soldier Mountain,"Fairfield, ID, USA",Fairfield,Idaho,United States,https://www.indyskipass.com/our-resorts/soldier-mountain,,43.484719,-114.8394912,1421,False,False,False,False,False,1150,35,,,3,5756,7177,1421,False,True,False,False,26,34,40,300,400,No,No,No,Yes,No
300,Sovereign Lake Nordic Club,"Vernon, BC, CA",Vernon,British Columbia,Canada,https://www.indyskipass.com/our-resorts/sovereign-lake-nordic-club,https://www.sovereignlake.com/conditions/webcam/,50.36244,-119.1077133,560,True,False,True,True,False,,30,33,54,,,,,True,False,False,True,,,,,,No,No,Yes,No,No
147,Spirit Mountain,"Duluth, MN, USA",Duluth,Minnesota,United States,https://www.indyskipass.com/our-resorts/spirit-mountain,https://spiritmt.com,46.7182684,-92.2167365,700,False,False,False,False,False,175,22,,,7,690,1390,700,True,True,False,False,35,40,25,90,135,No,No,Yes,Yes,No
148,Sundown Mountain,"Dubuque, IA, USA",Dubuque,Iowa,United States,https://www.indyskipass.com/our-resorts/sundown-mountain,https://www.sundownmtn.com,42.5152436,-90.8217712,475,False,False,False,False,False,55,21,,,6,584,1059,475,True,True,False,False,30,60,10,50,88,No,No,Yes,Yes,No
149,Sunlight Mountain Resort,"Glenwood Springs, CO, USA",Glenwood Springs,Colorado,United States,https://www.indyskipass.com/our-resorts/sunlight-mountain-resort,https://sunlightmtn.com,39.3997821,-107.341345,2010,False,False,False,False,False,730,72,,,3,7885,9895,2010,False,True,False,False,10,30,60,250,400,No,No,No,Yes,No
150,Sunrise Park,"Greer, AZ, USA",Greer,Arizona,United States,https://www.indyskipass.com/our-resorts/sunrise-park,https://www.sunrise.ski,33.9737271,-109.5668086,1800,False,False,False,False,False,1200,65,,,6,9300,11100,1800,True,True,False,False,46,28,22,250,400,No,No,Yes,Yes,No
151,Swain Resort,"Swain, NY, USA",Swain,New York,United States,https://www.indyskipass.com/our-resorts/swain-resort,https://swain.com,42.4765984,-77.8577131,650,False,False,False,False,False,120,35,,,5,1320,1970,650,True,True,False,False,32,37,31,130,180,No,No,Yes,Yes,No
184,Swiss Valley,"Jones, MI, USA",Jones,Michigan,United States,https://www.indyskipass.com/our-resorts/swiss-valley,http://www.skiswissvalley.com,41.9546966,-85.8299194,225,False,False,False,False,False,60,11,,,7,919,1134,225,True,True,False,False,36,36,27,26,40,No,No,Yes,Yes,No
361,Takasu Snow Park,"Gujo, Gifu, Japan",Gujo,Gifu,Japan,https://www.indyskipass.com/our-resorts/takasu-snow-park,https://www.takasu.gr.jp/,35.9982091,136.8747543,1968,False,False,False,False,False,247,13,,,4,3117,5085,1968,False,True,False,False,35,35,30,59,94,No,No,No,Yes,No
153,Tamarack Mountain Resort,"Donnelly , ID, USA",Donnelly,Idaho,United States,https://www.indyskipass.com/our-resorts/tamarack-mountain-resort,https://tamarackidaho.com,44.6707683,-116.1256351,2800,False,False,False,False,False,1385,50,,,7,4900,7700,2800,False,True,False,False,28,49,23,300,427,No,No,No,Yes,No
376,Tangram Ski Circus,"Shinano, Nagano, Japan",Shinano,Nagano,Japan,https://www.indyskipass.com/our-resorts/tangram-ski-circus,https://japan-skiguide.com/guide/htm/r0016ens.htm,36.8533811,138.2604231,1706,False,False,False,False,False,124,17,,,5,2625,4331,1706,True,False,False,False,30,40,30,71,126,No,No,Yes,No,No
154,Tazawako,"Tazawako, Tohoku",Semboku,Akita,Japan,https://www.indyskipass.com/our-resorts/tazawako,https://www.tazawako-ski.com/,39.7623337,140.7681328,1995,False,False,False,False,False,,13,,,6,1896,3891,1995,False,True,False,False,30,30,40,,,No,No,No,Yes,No
301,Telemark Nordic Center,"Kelowna, BC, CA",Kelowna,British Columbia,Canada,https://www.indyskipass.com/our-resorts/telemark-nordic-center,https://telemarknordic.com/current-trail-conditions/,49.863107,-119.7175073,,True,False,True,True,False,,30,31,50,,,,,True,False,False,True,,,,,,No,No,Yes,No,No
155,Terry Peak,"Lead, SD, USA",Lead,South Dakota,United States,https://www.indyskipass.com/our-resorts/terry-peak,https://terrypeak.com,44.3345768,-103.8429043,1100,False,False,False,False,False,450,30,,,5,5900,7100,1100,False,True,False,False,17,40,43,150,300,No,No,No,Yes,No
157,Titus Mountain,"Malone, NY, USA",Malone,New York,United States,https://www.indyskipass.com/our-resorts/titus-mountain,https://www.titusmountain.com,44.7634267,-74.2378371,1200,False,False,False,False,False,380,53,,,9,825,2025,1200,True,True,False,False,34,38,28,150,215,No,No,Yes,Yes,No
158,Togakushi Ski Resort,"Nagano, Japan",Nagano,Nagano,Japan,https://www.indyskipass.com/our-resorts/togakushi-ski-resort,https://www.togakusi.com,36.754361,138.0920507,1732,False,False,False,False,False,,19,,,7,4002,5734,1732,False,True,False,False,30,40,30,300,440,No,No,No,Yes,No
302,Trapp Family Lodge,"Stowe, VT, USA",Stowe,Vermont,United States,https://www.indyskipass.com/our-resorts/trapp-family-lodge,https://www.trappfamily.com/skiing-snowshoeing.htm,44.4654613,-72.7477526,800,True,False,True,True,False,,24,68,110,,,,,False,False,False,True,,,,,,No,No,No,No,No
159,Tree Tops Resort,"Gayord, MI, USA",Gaylord,Michigan,United States,https://www.indyskipass.com/our-resorts/tree-tops-resort,https://www.treetops.com,45.0343188,-84.5887653,225,True,True,False,False,False,80,25,,,5,1110,1333,225,True,True,False,True,30,40,30,150,208,No,Yes,Yes,Yes,No
160,Trollhaugen,"Dresser, WI, USA",Dresser,Wisconsin,United States,https://www.indyskipass.com/our-resorts/trollhaugen,https://trollhaugen.com,45.3513159,-92.6206738,280,False,False,False,False,False,80,30,,,8,928,1200,280,True,True,False,False,28,43,29,50,90,No,No,Yes,Yes,No
304,Turpin Meadow Ranch,"Jackson , WY, USA",Jackson,Wyoming,United States,https://www.indyskipass.com/our-resorts/turpin-meadow-ranch,https://turpinmeadowranch.com/web-cam/,43.8549223,-110.2708794,600,True,False,True,True,False,,7,12,20,,,,,True,False,False,True,,,,,,No,No,Yes,No,No
161,Tussey Mountain,"State College, PA, USA",State College,Pennsylvania,United States,https://www.indyskipass.com/our-resorts/tussey-mountain,https://tusseymountain.com,40.769202,-77.7565121,500,False,False,False,False,False,38,8,,,5,1302,1811,500,True,True,False,False,30,45,25,45,100,No,No,Yes,Yes,No
162,Tyrol Basin Ski and Snowboard,"Mt. Horeb, WI, USA",Mount Horeb,Wisconsin,United States,https://www.indyskipass.com/our-resorts/tyrol-basin-ski-and-snowboard,https://www.tyrolbasin.com,43.0447546,-89.7855207,300,False,False,False,False,False,40,24,,,7,860,1160,300,True,True,False,False,30,30,40,51,101,No,No,Yes,Yes,No
364,Washigatake Ski Resort,"Gujo, Gifu, Japan",Gujo,Gifu,Japan,https://www.indyskipass.com/our-resorts/washigatake-ski-resort,https://ski.washigatake.jp/,35.942471,136.9169811,1444,False,False,False,False,False,136,13,,,4,2986,4429,1444,True,True,False,False,30,40,30,71,157,No,No,Yes,Yes,No
163,Waterville Valley Resort,"Waterville Valley, NH, USA",Waterville Valley,New Hampshire,United States,https://www.indyskipass.com/our-resorts/waterville-valley-resort,https://www.waterville.com,43.965814884251,-71.528136004038,2020,True,True,False,False,False,265,62,44,71,11,1820,3840,2020,True,True,True,True,16,60,24,125,212,Yes,Yes,Yes,Yes,No
164,West Mountain,"Queensbury, NY, USA",,New York,United States,https://www.indyskipass.com/our-resorts/west-mountain,https://westmountain.com,43.285651,-73.7278653,1000,False,False,False,False,False,130,35,,,6,460,1470,1000,True,True,False,False,20,50,30,70,100,No,No,Yes,Yes,No
165,Whaleback Mountain,"Enfield, NH, USA",Enfield,New Hampshire,United States,https://www.indyskipass.com/our-resorts/whaleback-mountain,https://www.whaleback.com,43.601705,-72.1828453,700,False,False,False,False,False,86,31,,,4,1100,1800,700,True,True,False,False,30,35,35,50,96,No,No,Yes,Yes,No
307,White Grass Ski Touring,"Davis, WV, USA",Davis,West Virginia,United States,https://www.indyskipass.com/our-resorts/white-grass-ski-touring,https://whitegrass.com,39.019,-79.4242803,1200,True,False,True,True,False,,44,31,50,,,,,True,False,False,True,,,,,,No,No,Yes,No,No
166,White Pass,"White Pass, WA, USA",,Washington,United States,https://www.indyskipass.com/our-resorts/white-pass,https://skiwhitepass.com,46.6366469,-121.3950684,2050,False,False,False,False,False,1402,45,,,8,4500,6550,2050,True,True,False,False,20,60,20,415,658,No,No,Yes,Yes,No
308,White Pine Touring Nordic Center,"Park City, UT, USA",Park City,Utah,United States,https://www.indyskipass.com/our-resorts/white-pine-touring-nordic-center,,40.66233179,-111.5135009,,True,False,True,True,False,,5,12,20,,,,,False,False,False,True,,,,,,No,No,No,No,No
378,Whitehorse Nordic Centre,"Whitehorse, Yukon, Canada",Whitehorse,Yukon,Canada,https://www.indyskipass.com/our-resorts/whitehorse-nordic-centre,https://www.whitehorsenordiccentre.ca/,60.7306527,-135.1040097,,True,False,True,False,False,,,,,,,,,True,False,False,False,,,,,,No,No,Yes,No,No
363,WhitePIA Takasu,"Gujo, Gifu, Japan",Gujo,Gifu,Japan,https://www.indyskipass.com/our-resorts/whitepia-takasu,https://whitepia.jp/,35.9558168,136.9300044,1509,False,False,False,False,False,146,13,,,4,3100,4610,1509,False,True,False,False,30,40,30,47,79,No,No,No,Yes,No
167,Whitepine Mountain Resort,"Pinedale, WY, USA",Pinedale,Wyoming,United States,https://www.indyskipass.com/our-resorts/whitepine-mountain-resort,https://whitepinewyoming.com,42.9736669,-109.7824737,1100,False,False,False,False,False,370,29,,,2,8500,9600,1100,False,True,False,False,30,40,30,180,400,No,No,No,Yes,No
309,Williams Lake Cross Country Ski Club,"Williams Lake, BC, CA",Williams Lake,British Columbia,Canada,https://www.indyskipass.com/our-resorts/williams-lake-cross-country-ski-club,https://www.williamslakecrosscountryskiclub.ca/,52.2464628,-122.1228259,410,True,False,True,True,False,,30,21,35,,,,,True,False,True,True,,,,,,Yes,No,Yes,No,No
334,Wintergreen,,,,,https://www.indyskipass.com/our-resorts/wintergreen,https://www.wintergreenresort.com,37.93049274977,-78.939293866598,,False,False,False,False,False,,26,,,5,,,,True,True,False,False,20,35,45,,,No,No,Yes,Yes,No
168,Winterplace Ski Resort,"Flat Top , WV, USA",Flat Top,West Virginia,United States,https://www.indyskipass.com/our-resorts/winterplace-ski-resort,https://www.winterplace.com,37.596639,-81.128918,603,False,False,False,False,False,90,27,,,10,2997,3600,603,True,True,False,False,37,40,23,55,99,No,No,Yes,Yes,No
335,Wisp,,,,,https://www.indyskipass.com/our-resorts/wisp,https://www.wispresort.com/,39.557463271077,-79.363232023281,700,False,False,False,False,False,142,33,,,13,2415,3115,700,True,True,False,False,40,40,20,154,226,No,No,Yes,Yes,No
310,Woodstock Nordic Center,"Woodstock, VT, USA",Woodstock,Vermont,United States,https://www.indyskipass.com/our-resorts/woodstock-nordic-center,,43.6151845,-72.5187081,570,True,False,True,True,False,,48,27,45,,,,,False,False,False,True,,,,,,No,No,No,No,No
359,Yuzawa Nakazato Snow Resort,"Yuzawa, Niigata, Japan",Yuzawa,Niigata,Japan,https://www.indyskipass.com/our-resorts/yuzawa-nakazato-snow-resort,https://www.yuzawa-nakazato.com/winter/,36.9141426,138.8490268,800,False,False,False,False,False,326,16,,,6,1503,2303,800,False,False,False,False,40,30,30,531,925,No,No,No,No,No
